[{"county_name":null,"description":null,"feat_class":"Civil","feature_id":"38453","fips_class":"H1","fips_county_cd":"1","full_county_name":null,"link_title":null,"url":"http:\/\/www.aclink.org\/","name":"Atlantic County","primary_latitude":"39.46","primary_longitude":"-74.66","state_abbreviation":"NJ","state_name":"New Jersey"},{"county_name":null,"description":null,"feat_class":"Civil","feature_id":"38454","fips_class":"H1","fips_county_cd":"3","full_county_name":null,"link_title":null,"url":"http:\/\/www.co.bergen.nj.us\/","name":"Bergen County","primary_latitude":"40.93","primary_longitude":"-74.04","state_abbreviation":"NJ","state_name":"New Jersey"},{"county_name":null,"description":null,"feat_class":"Civil","feature_id":"38455","fips_class":"H1","fips_county_cd":"5","full_county_name":null,"link_title":null,"url":"http:\/\/www.co.burlington.nj.us\/","name":"Burlington County","primary_latitude":"39.88","primary_longitude":"-74.64","state_abbreviation":"NJ","state_name":"New Jersey"},{"county_name":null,"description":null,"feat_class":"Civil","feature_id":"38456","fips_class":"H1","fips_county_cd":"7","full_county_name":null,"link_title":null,"url":"http:\/\/www.camdencounty.com\/","name":"Camden County","primary_latitude":"39.78","primary_longitude":"-74.96","state_abbreviation":"NJ","state_name":"New Jersey"},{"county_name":null,"description":null,"feat_class":"Civil","feature_id":"38457","fips_class":"H1","fips_county_cd":"9","full_county_name":null,"link_title":null,"url":"http:\/\/www.co.cape-may.nj.us\/","name":"Cape May County","primary_latitude":"39.15","primary_longitude":"-74.78","state_abbreviation":"NJ","state_name":"New Jersey"},{"county_name":null,"description":null,"feat_class":"Civil","feature_id":"38458","fips_class":"H1","fips_county_cd":"11","full_county_name":null,"link_title":null,"url":"http:\/\/www.co.cumberland.nj.us\/","name":"Cumberland County","primary_latitude":"39.35","primary_longitude":"-75.08","state_abbreviation":"NJ","state_name":"New Jersey"},{"county_name":null,"description":null,"feat_class":"Civil","feature_id":"38459","fips_class":"H1","fips_county_cd":"13","full_county_name":null,"link_title":null,"url":"http:\/\/www.essex-countynj.org\/","name":"Essex County","primary_latitude":"40.78","primary_longitude":"-74.21","state_abbreviation":"NJ","state_name":"New Jersey"},{"county_name":null,"description":null,"feat_class":"Civil","feature_id":"38460","fips_class":"H1","fips_county_cd":"15","full_county_name":null,"link_title":null,"url":"http:\/\/www.co.gloucester.nj.us\/","name":"Gloucester County","primary_latitude":"39.73","primary_longitude":"-75.13","state_abbreviation":"NJ","state_name":"New Jersey"},{"county_name":null,"description":null,"feat_class":"Civil","feature_id":"38461","fips_class":"H1","fips_county_cd":"17","full_county_name":null,"link_title":null,"url":"http:\/\/www.hudsoncountynj.org\/","name":"Hudson County","primary_latitude":"40.71","primary_longitude":"-74.06","state_abbreviation":"NJ","state_name":"New Jersey"},{"county_name":null,"description":null,"feat_class":"Civil","feature_id":"38462","fips_class":"H1","fips_county_cd":"19","full_county_name":null,"link_title":null,"url":"http:\/\/www.co.hunterdon.nj.us\/","name":"Hunterdon County","primary_latitude":"40.56","primary_longitude":"-74.93","state_abbreviation":"NJ","state_name":"New Jersey"},{"county_name":null,"description":null,"feat_class":"Civil","feature_id":"38463","fips_class":"H1","fips_county_cd":"21","full_county_name":null,"link_title":null,"url":"http:\/\/nj.gov\/counties\/mercer\/","name":"Mercer County","primary_latitude":"40.38","primary_longitude":"-74.88","state_abbreviation":"NJ","state_name":"New Jersey"},{"county_name":null,"description":null,"feat_class":"Civil","feature_id":"38464","fips_class":"H1","fips_county_cd":"23","full_county_name":null,"link_title":null,"url":"http:\/\/www.co.middlesex.nj.us\/","name":"Middlesex County","primary_latitude":"40.43","primary_longitude":"-74.39","state_abbreviation":"NJ","state_name":"New Jersey"},{"county_name":null,"description":null,"feat_class":"Civil","feature_id":"38465","fips_class":"H1","fips_county_cd":"25","full_county_name":null,"link_title":null,"url":"http:\/\/www.co.monmouth.nj.us\/","name":"Monmouth County","primary_latitude":"40.3","primary_longitude":"-74.16","state_abbreviation":"NJ","state_name":"New Jersey"},{"county_name":null,"description":null,"feat_class":"Civil","feature_id":"38466","fips_class":"H1","fips_county_cd":"27","full_county_name":null,"link_title":null,"url":"http:\/\/www.co.morris.nj.us\/","name":"Morris County","primary_latitude":"40.83","primary_longitude":"-74.53","state_abbreviation":"NJ","state_name":"New Jersey"},{"county_name":null,"description":null,"feat_class":"Civil","feature_id":"38467","fips_class":"H1","fips_county_cd":"29","full_county_name":null,"link_title":null,"url":"http:\/\/www.oceancountygov.com\/","name":"Ocean County","primary_latitude":"39.9","primary_longitude":"-74.21","state_abbreviation":"NJ","state_name":"New Jersey"},{"county_name":null,"description":null,"feat_class":"Civil","feature_id":"38468","fips_class":"H1","fips_county_cd":"31","full_county_name":null,"link_title":null,"url":"http:\/\/www.passaiccountynj.org\/","name":"Passaic County","primary_latitude":"41.06","primary_longitude":"-74.36","state_abbreviation":"NJ","state_name":"New Jersey"},{"county_name":null,"description":null,"feat_class":"Civil","feature_id":"38469","fips_class":"H1","fips_county_cd":"33","full_county_name":null,"link_title":null,"url":"http:\/\/www.salemcountynj.gov\/","name":"Salem County","primary_latitude":"39.56","primary_longitude":"-75.31","state_abbreviation":"NJ","state_name":"New Jersey"},{"county_name":null,"description":null,"feat_class":"Civil","feature_id":"38470","fips_class":"H1","fips_county_cd":"35","full_county_name":null,"link_title":null,"url":"http:\/\/www.co.somerset.nj.us\/","name":"Somerset County","primary_latitude":"40.56","primary_longitude":"-74.54","state_abbreviation":"NJ","state_name":"New Jersey"},{"county_name":null,"description":null,"feat_class":"Civil","feature_id":"38471","fips_class":"H1","fips_county_cd":"37","full_county_name":null,"link_title":null,"url":"http:\/\/www.sussex.nj.us\/","name":"Sussex County","primary_latitude":"41.18","primary_longitude":"-74.66","state_abbreviation":"NJ","state_name":"New Jersey"},{"county_name":null,"description":null,"feat_class":"Civil","feature_id":"38472","fips_class":"H1","fips_county_cd":"39","full_county_name":null,"link_title":null,"url":"http:\/\/www.unioncountynj.org\/","name":"Union County","primary_latitude":"40.63","primary_longitude":"-74.26","state_abbreviation":"NJ","state_name":"New Jersey"},{"county_name":null,"description":null,"feat_class":"Civil","feature_id":"38473","fips_class":"H1","fips_county_cd":"41","full_county_name":null,"link_title":null,"url":"http:\/\/www.co.warren.nj.us\/","name":"Warren County","primary_latitude":"40.83","primary_longitude":"-74.94","state_abbreviation":"NJ","state_name":"New Jersey"}]